general:
  name: 校区
  content:
    - latitude: 43.82738
      longitude: 125.4274
      name: 净月校区
      detail: 中国吉林省长春市南关区净月大街 2555 号
      path: index

gate:
  name: 校门
  content:
    - latitude: 43.82853
      longitude: 125.43107
      name: 一号门
      detail: 净月校区一号门
      path: gate1

    - latitude: 43.829133
      longitude: 125.427097
      name: 二号门
      detail: 净月校区二号门
      path: gate2

    - latitude: 43.82789
      longitude: 125.42381
      name: 三号门
      detail: 净月校区三号门
      path: gate3

    - latitude: 43.82661
      longitude: 125.41988
      name: 四号门
      detail: 净月校区四号门
      path: gate4

    - latitude: 43.8248713856
      longitude: 125.4177331924
      name: 五号门
      detail: 净月校区五号门
      path: gate5

dorm:
  name: 寝室
  content:
    - latitude: 43.824736
      longitude: 125.421456
      name: 春华公寓
      detail: 春华公寓
      path: spring

    - latitude: 43.825123
      longitude: 125.422941
      name: 夏华公寓
      detail: 夏华公寓
      path: summer

    - latitude: 43.824953
      longitude: 125.423887
      name: 秋华公寓
      detail: 秋华公寓
      path: fall

    - latitude: 43.824615
      longitude: 125.425693
      name: 冬华公寓
      detail: 冬华公寓
      path: winter

    - latitude: 43.826837
      longitude: 125.422744
      name: 日华公寓
      detail: 日华公寓
      path: sun

    - latitude: 43.826706
      longitude: 125.421660
      name: 月华公寓
      detail: 月华公寓
      path: moon

    - latitude: 43.825953
      longitude: 125.422882
      name: 星华公寓
      detail: 星华公寓
      path: star

    - latitude: 43.82554
      longitude: 125.421097
      name: 光华公寓
      detail: 光华公寓
      path: light

    - latitude: 43.825426
      longitude: 125.434102
      name: 天华公寓
      detail: 天华公寓

    - latitude: 43.825307
      longitude: 125.433375
      name: 地华公寓
      detail: 地华公寓

    - latitude: 43.825804
      longitude: 125.433429
      name: 人华公寓
      detail: 人华公寓

school:
  name: 学院
  content:
    - latitude: 43.827666
      longitude: 125.42734
      name: 经济与管理学院
      detail: 东北师范大学经济与管理学院
      path: economy

    - latitude: 43.82748
      longitude: 125.42448
      name: 民族教育学院
      detail: 东北师范大学民族教育学院
      path: people

    - latitude: 43.825102
      longitude: 125.426706
      name: 环境学院
      detail: 东北师范大学环境学院
      path: environment

    - latitude: 43.82714
      longitude: 125.42598
      name: 政法学院
      detail: 东北师范大学政法学院
      path: politics

    - latitude: 43.82637
      longitude: 125.42704
      name: 传媒科学学院
      detail: 东北师范大学传媒科学学院
      path: media

    - latitude: 43.826677
      longitude: 125.429272
      name: 音乐学院
      detail: 东北师范大学音乐学院
      path: music

    - latitude: 43.826252
      longitude: 125.425284
      name: 外国语学院
      detail: 净月校区外国语学院
      path: art

    - latitude: 43.82564
      longitude: 125.42814
      name: 美术学院油画系
      detail: 东北师范大学美术学院油画系
      path: art

    - latitude: 43.82532
      longitude: 125.42952
      name: 美术学院雕塑系
      detail: 东北师范大学美术学院雕塑系
      path: art

    - latitude: 43.8251152084
      longitude: 125.4289072752
      name: 美术学院服装教学楼
      detail: 东北师范大学美术学院服装教学楼
      path: art

    - latitude: 43.82572
      longitude: 125.42695
      name: 信息科学与技术学院
      detail: 东北师范大学信息科学与技术学院
      path: ist

    - latitude: 43.8279558644
      longitude: 125.4254311323
      name: 留学生教育学院
      detail: 东北师范大学净月校区留学生教育学院

    - latitude: 43.8261408015
      longitude: 125.4205870628
      name: 留学生外国留学生预科部
      detail: 东北师范大学净月校区外国留学生预科部

building:
  name: 建筑
  content:
    - latitude: 43.826122
      longitude: 125.42412
      name: 图书馆
      detail: 净月校区图书馆
      path: library

    - latitude: 43.828469
      longitude: 125.426686
      name: 行政楼
      detail: 东北师范大学行政楼

    - latitude: 43.824767
      longitude: 125.426147
      name: 综合教学楼
      detail: 净月校区综合教学楼

    - latitude: 43.825746
      longitude: 125.424458
      name: 保卫处
      detail: 净月校区保卫处

    - latitude: 43.824582
      longitude: 125.42572
      name: 信息化办
      detail: 净月校区信息管理与规划办公室

    - latitude: 43.825456
      longitude: 125.427069
      name: 量子科学中心
      detail: 东北师范大学量子科学中心

    - latitude: 43.825582
      longitude: 125.418001
      name: 辐射技术研究所
      detail: 东北师范大学辐射技术研究所

    - latitude: 43.824258
      longitude: 125.427163
      name: 药物基因和蛋白筛选国家工程实验室
      detail: 东北师范大学药物基因和蛋白筛选国家工程实验室

    - latitude: 43.824792
      longitude: 125.41865
      name: 东北师范大学出版社
      detail: 东北师范大学出版社

facility:
  name: 设施
  content:
    - latitude: 43.82704
      longitude: 125.42385
      name: 一食堂
      detail: 净月校区一食堂
      path: dining1

    - latitude: 43.825301
      longitude: 125.424682
      name: 二食堂
      detail: 净月校区二食堂
      path: dining2

    - latitude: 43.826193
      longitude: 125.420806
      name: 浴池
      detail: 净月校区浴池
      path: bath

    - latitude: 43.825692
      longitude: 125.424139
      name: 校医院
      detail: 净月校区校医院
      path: hospital

    - latitude: 43.824961
      longitude: 125.424726
      name: 快递中心
      detail: 快递中心
      path: express

    - latitude: 43.825197
      longitude: 125.425045
      name: 超市
      detail: 超市
      path: shop

    - latitude: 43.827284
      longitude: 125.423359
      name: ATM
      detail: ATM
      path: atm

scenery:
  name: 风景
  content:
    - latitude: 43.8276540028
      longitude: 125.4286766052
      name: 旭日广场
      detail: 净月校区旭日广场

    - latitude: 43.8274605009
      longitude: 125.4255920649
      name: 牡丹园
      detail: 净月校区牡丹园

store:
  name: 店铺
  content:
    - latitude: 43.825126
      longitude: 125.424799
      name: 宏城烘焙坊
      detail: 二食堂一楼

    - latitude: 43.825193
      longitude: 125.424987
      name: 品胜手机电脑
      detail: 二食堂一楼

    - latitude: 43.825086
      longitude: 125.424744
      name: 中国移动+数码产品维修
      detail: 二食堂菜鸟驿站旁

    - latitude: 43.827024
      longitude: 125.423912
      name: 竖正茶饮
      detail: 一食堂一楼

    - latitude: 43.826849
      longitude: 125.423778
      name: 鲜榨果汁
      detail: 一食堂二楼

    - latitude: 43.82526
      longitude: 125.424994
      name: 酷乐冰城
      detail: 二食堂超市对面

    - latitude: 43.825158
      longitude: 125.424935
      name: 甜啦啦
      detail: 二食堂书店内

    - latitude: 43.82505
      longitude: 125.424809
      name: 瑞幸咖啡
      detail: 二食堂菜鸟驿站旁

    - latitude: 43.825531
      longitude: 125.424621
      name: 菓碰茶
      detail: 二食堂三楼西北侧

    - latitude: 43.826192
      longitude: 125.420708
      name: 黑泷堂
      detail: 学生浴池门口左侧

    - latitude: 43.826196
      longitude: 125.421112
      name: 季康大药房
      detail: 学生浴池正门右侧

    - latitude: 43.826136
      longitude: 125.420682
      name: 天猫校园鲜果小铺
      detail: 浴池正门左侧

    - latitude: 43.825238
      longitude: 125.425001
      name: 缤果屋
      detail: 二食堂一楼 (超市入口附近)

    - latitude: 43.825084
      longitude: 125.42468
      name: 平价水果超市
      detail: 二食堂二楼基本餐楼层

    - latitude: 43.827058
      longitude: 125.42359
      name: Sandwich
      detail: 一食堂二楼售餐亭

    - latitude: 43.825329
      longitude: 125.425003
      name: 秀发型
      detail: 二食堂超市入口对面

    - latitude: 43.826169
      longitude: 125.420948
      name: DL 发型设计
      detail: 学生浴池正门右侧

    - latitude: 43.82521
      longitude: 125.42487
      name: 学子图文复印店

    - latitude: 43.826056
      longitude: 125.420767
      name: 云印社

    - latitude: 43.826169
      longitude: 125.421143
      name: 糖果洗衣
      detail: 浴池后侧

sports:
  name: 运动场地
  content:
    - latitude: 43.824997
      longitude: 125.420472
      name: 田径场
      detail: 净月校区田径场

    - latitude: 43.8241
      longitude: 125.421789
      name: 足球场
      detail: 净月校区足球场

    - latitude: 43.823928
      longitude: 125.422647
      name: 篮球场
      detail: 净月校区篮球场

    - latitude: 43.824501
      longitude: 125.424648
      name: 网球场
      detail: 净月校区网球场

    - latitude: 43.823919306
      longitude: 125.4245567322
      name: 排球场
      detail: 净月校区排球场

    - latitude: 43.82441
      longitude: 125.419355
      name: 羽毛球场
      detail: 净月校区羽毛球场

    - latitude: 43.824204
      longitude: 125.423498
      name: 轮滑场
      detail: 净月校区轮滑场
